{
  "results": [
    {
      "id": 41343,
      "name": "Koja",
      "rating": 98,
      "address": {
        "street": "Ljube Nešića bb",
        "zipcode": "19000",
        "city": "Zaječar",
        "region": "Zaječarski",
        "country": "Serbia"
      },
      "plan": "regular",
      "images": {
        "original": [""]
      },
      "geolocation": {
        "latitude": 43.913601,
        "longitude": 22.3032
      },
      "counters": {
        "images": 0,
        "menus": 1,
        "reviews": 45,
        "fans": 3
      }
    },
    {
      "id": 115538,
      "name": "Amfora",
      "rating": 91,
      "address": {
        "street": "Nieuwe Oosterstraat 9",
        "zipcode": "8911 KM",
        "city": "Leeuwarden",
        "region": "Friesland",
        "country": "The Netherlands"
      },
      "plan": "featured",
      "images": {
        "original": ["https://d1ds1nqrpp2srf.cloudfront.net/attachments/91721/Amfora__2845_29_featured.jpg?1463758246"]
      },
      "geolocation": {
        "latitude": 53.2007897,
        "longitude": 5.8015606
      },
      "counters": {
        "images": 9,
        "menus": 1,
        "reviews": 79,
        "fans": 3
      }
    },
    {
      "id": 4630,
      "name": "De Witte Pauw",
      "rating": 86,
      "address": {
        "street": "Staverdenseweg 80",
        "zipcode": "8075 AS",
        "city": "Elspeet",
        "region": "Gelderland",
        "country": "The Netherlands"
      },
      "plan": "regular",
      "images": {
        "original": []
      },
      "geolocation": {
        "latitude": 52.2918278,
        "longitude": 5.7767427
      },
      "counters": {
        "images": 0,
        "menus": 0,
        "reviews": 36,
        "fans": 6
      }
    },
    {
      "id": 38592,
      "name": "Kod tri lipe",
      "rating": 79,
      "address": {
        "street": "Vojvode Misica 68",
        "zipcode": "14000",
        "city": "Valjevo",
        "region": "Kolubarski",
        "country": "Serbia"
      },
      "plan": "regular",
      "images": {
        "original": []
      },
      "geolocation": {
        "latitude": 44.2740479,
        "longitude": 19.8837706
      },
      "counters": {
        "images": 0,
        "menus": 0,
        "reviews": 5,
        "fans": 2
      }
    },
    {
      "id": 5634,
      "name": "Aleksandar",
      "rating": 68,
      "address": {
        "street": "Stationsweg 171",
        "zipcode": "9201 GM",
        "city": "Drachten",
        "region": "Friesland",
        "country": "The Netherlands"
      },
      "plan": "featured",
      "images": {
        "original": ["https://d1ds1nqrpp2srf.cloudfront.net/attachments/90203/12366377_1734124153484783_4012734449084183087_n_original.jpg?1459848193"]
      },
      "geolocation": {
        "latitude": 53.115799,
        "longitude": 6.0967898
      },
      "counters": {
        "images": 6,
        "menus": 0,
        "reviews": 52,
        "fans": 2
      }
    },
    {
      "id": 2583,
      "name": "Rizo's",
      "rating": 90,
      "address": {
        "street": "Middenstraat 4",
        "zipcode": "6915 AN",
        "city": "Lobith",
        "region": "Gelderland",
        "country": "The Netherlands"
      },
      "plan": "regular",
      "images": {
        "original": []
      },
      "geolocation": {
        "latitude": 51.8610939,
        "longitude": 6.1197497
      },
      "counters": {
        "images": 0,
        "menus": 0,
        "reviews": 15,
        "fans": 0
      }
    },
    {
      "id": 2702,
      "name": "Sarajevo",
      "rating": 90,
      "address": {
        "street": "Spoorstraat 11",
        "zipcode": "6602 AV",
        "city": "Wijchen",
        "region": "Gelderland",
        "country": "The Netherlands"
      },
      "plan": "featured",
      "images": {
        "original": [
          "https://d1ds1nqrpp2srf.cloudfront.net/attachments/91637/cevap_original.jpg?1463616341"
        ]
      },
      "geolocation": {
        "latitude": 51.8074541,
        "longitude": 5.7251776
      },
      "counters": {
        "images": 9,
        "menus": 1,
        "reviews": 13,
        "fans": 0
      }
    },
    {
      "id": 81933,
      "name": "Dren",
      "rating": 66,
      "address": {
        "street": "Tošin bunar 216",
        "zipcode": "11070",
        "city": "Novi Beograd",
        "region": "Belgrade",
        "country": "Serbia"
      },
      "plan": "regular",
      "images": {
        "original": []
      },
      "geolocation": {
        "latitude": 44.8299435,
        "longitude": 20.3993583
      },
      "counters": {
        "images": 0,
        "menus": 0,
        "reviews": 3,
        "fans": 1
      }
    },
    {
      "id": 3590,
      "name": "De Kleine Balkan",
      "rating": 89,
      "address": {
        "street": "van Cappellestraat 4",
        "zipcode": "7001 ZC",
        "city": "Doetinchem",
        "region": "Gelderland",
        "country": "The Netherlands"
      },
      "plan": "featured",
      "images": {
        "original": [
          "https://d1ds1nqrpp2srf.cloudfront.net/attachments/92300/Gamba_27s_2C_Zalm_en_Tagliatelle_original.jpg?1465414427"
        ]
      },
      "geolocation": {
        "latitude": 51.9656256,
        "longitude": 6.2868788
      },
      "counters": {
        "images": 11,
        "menus": 1,
        "reviews": 132,
        "fans": 15
      }
    },
    {
      "id": 25013,
      "name": "Dalmacija",
      "rating": 89,
      "address": {
        "street": "Lindeplein 4b",
        "zipcode": "6444 AT",
        "city": "Brunssum",
        "region": "Limburg",
        "country": "The Netherlands"
      },
      "plan": "featured",
      "images": {
        "original": [
          "https://d1ds1nqrpp2srf.cloudfront.net/attachments/55213/936791_187597861394481_801386873_n-jpg20130711-31434-1qv899j_original.jpg?1373570915"
        ]
      },
      "geolocation": {
        "latitude": 50.9439527,
        "longitude": 5.9702981
      },
      "counters": {
        "images": 1,
        "menus": 1,
        "reviews": 45,
        "fans": 4
      }
    },
    {
      "id": 28504,
      "name": "Ohrid",
      "category": "Balkan",
      "rating": 88,
      "address": {
        "street": "Grote Kerkstraat 46",
        "zipcode": "7902 CK",
        "city": "Hoogeveen",
        "region": "Drenthe",
        "country": "The Netherlands"
      },
      "plan": "featured",
      "images": {
        "original": [
          "https://d1ds1nqrpp2srf.cloudfront.net/attachments/51185/dscn3995-jpg20130522-16337-1gqggyy_original.jpg?1369214684"
        ]
      },
      "geolocation": {
        "latitude": 52.7259668,
        "longitude": 6.4821785
      },
      "counters": {
        "images": 5,
        "menus": 3,
        "reviews": 79,
        "fans": 7
      }
    },
    {
      "id": 61373,
      "name": "Lipa ",
      "category": "Balkan",
      "rating": 88,
      "address": {
        "street": "Miletićeva 7",
        "zipcode": "21000",
        "city": "Novi Sad",
        "region": "Južnobački",
        "country": "Serbia"
      },
      "plan": "regular",
      "images": {
        "original": [
          "https://d1ds1nqrpp2srf.cloudfront.net/attachments/50677/lipa-jpg20130516-1600-1id32n8_original.jpg?1368720186"
        ]
      },
      "geolocation": {
        "latitude": 45.262231,
        "longitude": 19.851858
      },
      "counters": {
        "images": 1,
        "menus": 0,
        "reviews": 4,
        "fans": 1
      }
    },
    {
      "id": 107868,
      "name": "Balkan Restaurant Macedonië",
      "rating": 86,
      "address": {
        "street": "Lindeplein 15",
        "zipcode": "6444 AT",
        "city": "Brunssum",
        "region": "Limburg",
        "country": "The Netherlands"
      },
      "plan": "featured",
      "images": {
        "original": [
          "https://d1ds1nqrpp2srf.cloudfront.net/attachments/92024/2d715c_7e62a9fab5084db78791d7edf777d099_original.jpg?1464772639"
        ]
      },
      "geolocation": {
        "latitude": 50.9426735,
        "longitude": 5.9697114
      },
      "counters": {
        "images": 4,
        "menus": 0,
        "reviews": 22,
        "fans": 3
      }
    },
    {
      "id": 101293,
      "name": "Sur Gril Magaza",
      "rating": 81,
      "address": {
        "street": "Stražilovska 8",
        "zipcode": "21000",
        "city": "Novi Sad",
        "region": "Južnobački",
        "country": "Serbia"
      },
      "plan": "regular",
      "images": {
        "original": [
          "https://d1ds1nqrpp2srf.cloudfront.net/attachments/56281/jelovnik-2012-a-jpg20130723-14902-ojd7eo_original.jpg?1374584712"
        ]
      },
      "geolocation": {
        "latitude": 45.2513673,
        "longitude": 19.8471075
      },
      "counters": {
        "images": 13,
        "menus": 0,
        "reviews": 6,
        "fans": 1
      }
    },
    {
      "id": 108915,
      "name": "Swiss cafe",
      "rating": 78,
      "address": {
        "street": "Janka Veselinovica 29",
        "zipcode": "21000",
        "city": "Novi Sad",
        "region": "Južnobački",
        "country": "Serbia"
      },
      "plan": "featured",
      "images": {
        "original": [
          "https://d1ds1nqrpp2srf.cloudfront.net/attachments/66475/040-jpg20140108-4829-hz2dly_original.jpg?1389189206"
        ]
      },
      "geolocation": {
        "latitude": 45.2610084,
        "longitude": 19.8154657
      },
      "counters": {
        "images": 8,
        "menus": 1,
        "reviews": 5,
        "fans": 4
      }
    },
    {
      "id": 110208,
      "name": "Calimero Food Bar",
      "rating": 76,
      "address": {
        "street": "Strazilovska 37",
        "zipcode": "21000",
        "city": "Novi Sad",
        "region": "Južnobački",
        "country": "Serbia"
      },
      "plan": "featured",
      "images": {
        "original": [
          "https://d1ds1nqrpp2srf.cloudfront.net/attachments/68545/flajer-novi-gl-strana-jpg20140407-17187-18c2f7e_original.jpg?1396859342"
        ]
      },
      "geolocation": {
        "latitude": 45.2513673,
        "longitude": 19.8471075
      },
      "counters": {
        "images": 11,
        "menus": 5,
        "reviews": 1,
        "fans": 3
      }
    },
    {
      "id": 37556,
      "name": "Bela Lađa",
      "rating": 56,
      "address": {
        "street": "Kisačka 21 ",
        "zipcode": "21000",
        "city": "Novi Sad",
        "region": "Južnobački",
        "country": "Serbia"
      },
      "plan": "regular",
      "images": {
        "original": []
      },
      "geolocation": {
        "latitude": 45.2628774,
        "longitude": 19.8394577
      },
      "counters": {
        "images": 0,
        "menus": 0,
        "reviews": 1,
        "fans": 1
      }
    },
    {
      "id": 42752,
      "name": "Galla",
      "rating": 78,
      "address": {
        "street": "Bulevar Arsenija Čarnojevica 95",
        "zipcode": "11070",
        "city": "Belgrade",
        "region": "Belgrade",
        "country": "Serbia"
      },
      "plan": "regular",
      "images": {
        "original": []
      },
      "geolocation": {
        "latitude": 44.8123809,
        "longitude": 20.4181606
      },
      "counters": {
        "images": 0,
        "menus": 0,
        "reviews": 6,
        "fans": 1
      }
    },
    {
      "id": 41629,
      "name": "Krčma verige",
      "rating": 75,
      "address": {
        "street": "Stanoja Glavaša 32",
        "zipcode": "18000",
        "city": "Niš",
        "region": "Nišavski",
        "country": "Serbia"
      },
      "plan": "regular",
      "images": {
        "original": []
      },
      "geolocation": {
        "latitude": 43.3046512,
        "longitude": 21.9043297
      },
      "counters": {
        "images": 0,
        "menus": 0,
        "reviews": 7,
        "fans": 1
      }
    }
  ]
}